[
  {
    "name": "National Emergency",
    "type": "emergency",
    "phone": "112",
    "address": "All India",
    "city": "All India",
    "state": "All States",
    "country": "India",
    "lat": 20.5937,
    "lon": 78.9629,
    "available_24x7": 1,
    "trauma_level": null
  },
  {
    "name": "Ambulance India",
    "type": "ambulance",
    "phone": "108",
    "address": "All India",
    "city": "All India",
    "state": "All States",
    "country": "India",
    "lat": 20.5937,
    "lon": 78.9629,
    "available_24x7": 1,
    "trauma_level": null
  },
  {
    "name": "Police India",
    "type": "police",
    "phone": "100",
    "address": "All India",
    "city": "All India",
    "state": "All States",
    "country": "India",
    "lat": 20.5937,
    "lon": 78.9629,
    "available_24x7": 1,
    "trauma_level": null
  },
  {
    "name": "Fire Brigade India",
    "type": "fire",
    "phone": "101",
    "address": "All India",
    "city": "All India",
    "state": "All States",
    "country": "India",
    "lat": 20.5937,
    "lon": 78.9629,
    "available_24x7": 1,
    "trauma_level": null
  },
  {
    "name": "NHAI Road Accident Helpline",
    "type": "emergency",
    "phone": "1073",
    "address": "NHAI Helpline",
    "city": "All India",
    "state": "All States",
    "country": "India",
    "lat": 20.5937,
    "lon": 78.9629,
    "available_24x7": 1,
    "trauma_level": null
  },
  {
    "name": "Women Helpline",
    "type": "emergency",
    "phone": "1091",
    "address": "All India",
    "city": "All India",
    "state": "All States",
    "country": "India",
    "lat": 20.5937,
    "lon": 78.9629,
    "available_24x7": 1,
    "trauma_level": null
  },
  {
    "name": "Civil Hospital Ahmedabad",
    "type": "trauma_centre",
    "phone": "079-22681060",
    "address": "Asarwa, Ahmedabad",
    "city": "Ahmedabad",
    "state": "Gujarat",
    "country": "India",
    "lat": 23.0549,
    "lon": 72.6091,
    "available_24x7": 1,
    "trauma_level": "Level 1"
  },
  {
    "name": "LG Hospital",
    "type": "hospital",
    "phone": "079-22682400",
    "address": "Maninagar, Ahmedabad",
    "city": "Ahmedabad",
    "state": "Gujarat",
    "country": "India",
    "lat": 23.0042,
    "lon": 72.6,
    "available_24x7": 1,
    "trauma_level": "Level 2"
  },
  {
    "name": "Ahmedabad Police Control Room",
    "type": "police",
    "phone": "079-25630100",
    "address": "Shahibaug, Ahmedabad",
    "city": "Ahmedabad",
    "state": "Gujarat",
    "country": "India",
    "lat": 23.0618,
    "lon": 72.6025,
    "available_24x7": 1,
    "trauma_level": null
  },
  {
    "name": "Ahmedabad CATS Ambulance",
    "type": "ambulance",
    "phone": "108",
    "address": "Ahmedabad",
    "city": "Ahmedabad",
    "state": "Gujarat",
    "country": "India",
    "lat": 23.0225,
    "lon": 72.5714,
    "available_24x7": 1,
    "trauma_level": null
  },
  {
    "name": "GVK EMRI Towing Ahmedabad",
    "type": "towing",
    "phone": "079-26444444",
    "address": "Ahmedabad",
    "city": "Ahmedabad",
    "state": "Gujarat",
    "country": "India",
    "lat": 23.0225,
    "lon": 72.5714,
    "available_24x7": 1,
    "trauma_level": null
  },
  {
    "name": "Sola Civil Hospital",
    "type": "hospital",
    "phone": "079-27492831",
    "address": "Sola, Ahmedabad",
    "city": "Ahmedabad",
    "state": "Gujarat",
    "country": "India",
    "lat": 23.0545,
    "lon": 72.5201,
    "available_24x7": 1,
    "trauma_level": "Level 2"
  },
  {
    "name": "AIIMS Trauma Centre",
    "type": "trauma_centre",
    "phone": "011-26588500",
    "address": "Ansari Nagar, New Delhi",
    "city": "New Delhi",
    "state": "Delhi",
    "country": "India",
    "lat": 28.5672,
    "lon": 77.21,
    "available_24x7": 1,
    "trauma_level": "Level 1"
  },
  {
    "name": "Safdarjung Hospital",
    "type": "hospital",
    "phone": "011-26730000",
    "address": "Safdarjung, New Delhi",
    "city": "New Delhi",
    "state": "Delhi",
    "country": "India",
    "lat": 28.5678,
    "lon": 77.207,
    "available_24x7": 1,
    "trauma_level": "Level 1"
  },
  {
    "name": "Ram Manohar Lohia Hospital",
    "type": "hospital",
    "phone": "011-23404000",
    "address": "Baba Kharak Singh Marg",
    "city": "New Delhi",
    "state": "Delhi",
    "country": "India",
    "lat": 28.627,
    "lon": 77.2017,
    "available_24x7": 1,
    "trauma_level": "Level 2"
  },
  {
    "name": "Delhi Police Control Room",
    "type": "police",
    "phone": "011-23490000",
    "address": "ITO, New Delhi",
    "city": "New Delhi",
    "state": "Delhi",
    "country": "India",
    "lat": 28.6286,
    "lon": 77.2395,
    "available_24x7": 1,
    "trauma_level": null
  },
  {
    "name": "Delhi Ambulance Service",
    "type": "ambulance",
    "phone": "102",
    "address": "New Delhi",
    "city": "New Delhi",
    "state": "Delhi",
    "country": "India",
    "lat": 28.6139,
    "lon": 77.209,
    "available_24x7": 1,
    "trauma_level": null
  },
  {
    "name": "KEM Hospital",
    "type": "trauma_centre",
    "phone": "022-24107000",
    "address": "Acharya Donde Marg, Parel",
    "city": "Mumbai",
    "state": "Maharashtra",
    "country": "India",
    "lat": 18.9937,
    "lon": 72.8407,
    "available_24x7": 1,
    "trauma_level": "Level 1"
  },
  {
    "name": "Nair Hospital",
    "type": "hospital",
    "phone": "022-23027600",
    "address": "Mumbai Central",
    "city": "Mumbai",
    "state": "Maharashtra",
    "country": "India",
    "lat": 18.9716,
    "lon": 72.8192,
    "available_24x7": 1,
    "trauma_level": "Level 1"
  },
  {
    "name": "Mumbai Police Control",
    "type": "police",
    "phone": "022-22621855",
    "address": "Crawford Market",
    "city": "Mumbai",
    "state": "Maharashtra",
    "country": "India",
    "lat": 18.9479,
    "lon": 72.8346,
    "available_24x7": 1,
    "trauma_level": null
  },
  {
    "name": "Mumbai Ambulance 108",
    "type": "ambulance",
    "phone": "108",
    "address": "Mumbai",
    "city": "Mumbai",
    "state": "Maharashtra",
    "country": "India",
    "lat": 19.076,
    "lon": 72.8777,
    "available_24x7": 1,
    "trauma_level": null
  },
  {
    "name": "NHAI Towing Mumbai",
    "type": "towing",
    "phone": "1800-22-1406",
    "address": "Mumbai",
    "city": "Mumbai",
    "state": "Maharashtra",
    "country": "India",
    "lat": 19.076,
    "lon": 72.8777,
    "available_24x7": 1,
    "trauma_level": null
  },
  {
    "name": "Victoria Hospital",
    "type": "trauma_centre",
    "phone": "080-26701150",
    "address": "Fort Rd, Bangalore",
    "city": "Bangalore",
    "state": "Karnataka",
    "country": "India",
    "lat": 12.9641,
    "lon": 77.5784,
    "available_24x7": 1,
    "trauma_level": "Level 1"
  },
  {
    "name": "Bangalore Medical College Hospital",
    "type": "hospital",
    "phone": "080-26703200",
    "address": "Fort Road, Bangalore",
    "city": "Bangalore",
    "state": "Karnataka",
    "country": "India",
    "lat": 12.9634,
    "lon": 77.5781,
    "available_24x7": 1,
    "trauma_level": "Level 2"
  },
  {
    "name": "Bangalore Police Control",
    "type": "police",
    "phone": "080-22942222",
    "address": "Infantry Road",
    "city": "Bangalore",
    "state": "Karnataka",
    "country": "India",
    "lat": 12.9785,
    "lon": 77.5985,
    "available_24x7": 1,
    "trauma_level": null
  },
  {
    "name": "CATS Ambulance Bangalore",
    "type": "ambulance",
    "phone": "108",
    "address": "Bangalore",
    "city": "Bangalore",
    "state": "Karnataka",
    "country": "India",
    "lat": 12.9716,
    "lon": 77.5946,
    "available_24x7": 1,
    "trauma_level": null
  },
  {
    "name": "Bangalore Towing Service",
    "type": "towing",
    "phone": "080-22868686",
    "address": "Bangalore",
    "city": "Bangalore",
    "state": "Karnataka",
    "country": "India",
    "lat": 12.9716,
    "lon": 77.5946,
    "available_24x7": 1,
    "trauma_level": null
  },
  {
    "name": "Rajiv Gandhi Govt Hospital",
    "type": "trauma_centre",
    "phone": "044-25305000",
    "address": "Park Town, Chennai",
    "city": "Chennai",
    "state": "Tamil Nadu",
    "country": "India",
    "lat": 13.0843,
    "lon": 80.2784,
    "available_24x7": 1,
    "trauma_level": "Level 1"
  },
  {
    "name": "Stanley Medical College Hospital",
    "type": "hospital",
    "phone": "044-25281330",
    "address": "Old Jail Road, Chennai",
    "city": "Chennai",
    "state": "Tamil Nadu",
    "country": "India",
    "lat": 13.1076,
    "lon": 80.2891,
    "available_24x7": 1,
    "trauma_level": "Level 2"
  },
  {
    "name": "Chennai Police Control",
    "type": "police",
    "phone": "044-28447777",
    "address": "Vepery, Chennai",
    "city": "Chennai",
    "state": "Tamil Nadu",
    "country": "India",
    "lat": 13.086,
    "lon": 80.2707,
    "available_24x7": 1,
    "trauma_level": null
  },
  {
    "name": "Chennai Ambulance 108",
    "type": "ambulance",
    "phone": "108",
    "address": "Chennai",
    "city": "Chennai",
    "state": "Tamil Nadu",
    "country": "India",
    "lat": 13.0827,
    "lon": 80.2707,
    "available_24x7": 1,
    "trauma_level": null
  },
  {
    "name": "Osmania General Hospital",
    "type": "trauma_centre",
    "phone": "040-24600128",
    "address": "Afzalgunj, Hyderabad",
    "city": "Hyderabad",
    "state": "Telangana",
    "country": "India",
    "lat": 17.3794,
    "lon": 78.4718,
    "available_24x7": 1,
    "trauma_level": "Level 1"
  },
  {
    "name": "Gandhi Hospital",
    "type": "hospital",
    "phone": "040-23267926",
    "address": "Musheerabad, Hyderabad",
    "city": "Hyderabad",
    "state": "Telangana",
    "country": "India",
    "lat": 17.417,
    "lon": 78.4869,
    "available_24x7": 1,
    "trauma_level": "Level 1"
  },
  {
    "name": "Hyderabad Police Control",
    "type": "police",
    "phone": "040-27852323",
    "address": "Hyderabad",
    "city": "Hyderabad",
    "state": "Telangana",
    "country": "India",
    "lat": 17.385,
    "lon": 78.4867,
    "available_24x7": 1,
    "trauma_level": null
  },
  {
    "name": "Hyderabad Ambulance 108",
    "type": "ambulance",
    "phone": "108",
    "address": "Hyderabad",
    "city": "Hyderabad",
    "state": "Telangana",
    "country": "India",
    "lat": 17.385,
    "lon": 78.4867,
    "available_24x7": 1,
    "trauma_level": null
  },
  {
    "name": "Sassoon General Hospital",
    "type": "trauma_centre",
    "phone": "020-26128000",
    "address": "Pune Station",
    "city": "Pune",
    "state": "Maharashtra",
    "country": "India",
    "lat": 18.5184,
    "lon": 73.8676,
    "available_24x7": 1,
    "trauma_level": "Level 1"
  },
  {
    "name": "Pune Police Control Room",
    "type": "police",
    "phone": "020-26123456",
    "address": "Shivajinagar, Pune",
    "city": "Pune",
    "state": "Maharashtra",
    "country": "India",
    "lat": 18.5308,
    "lon": 73.8474,
    "available_24x7": 1,
    "trauma_level": null
  },
  {
    "name": "Pune Ambulance 108",
    "type": "ambulance",
    "phone": "108",
    "address": "Pune",
    "city": "Pune",
    "state": "Maharashtra",
    "country": "India",
    "lat": 18.5204,
    "lon": 73.8567,
    "available_24x7": 1,
    "trauma_level": null
  },
  {
    "name": "SSKM Hospital",
    "type": "trauma_centre",
    "phone": "033-22041818",
    "address": "AJC Bose Road, Kolkata",
    "city": "Kolkata",
    "state": "West Bengal",
    "country": "India",
    "lat": 22.5372,
    "lon": 88.3399,
    "available_24x7": 1,
    "trauma_level": "Level 1"
  },
  {
    "name": "Kolkata Police Control",
    "type": "police",
    "phone": "033-22143000",
    "address": "Lalbazar, Kolkata",
    "city": "Kolkata",
    "state": "West Bengal",
    "country": "India",
    "lat": 22.5688,
    "lon": 88.3702,
    "available_24x7": 1,
    "trauma_level": null
  },
  {
    "name": "Kolkata Ambulance 108",
    "type": "ambulance",
    "phone": "108",
    "address": "Kolkata",
    "city": "Kolkata",
    "state": "West Bengal",
    "country": "India",
    "lat": 22.5726,
    "lon": 88.3639,
    "available_24x7": 1,
    "trauma_level": null
  },
  {
    "name": "SMS Hospital Jaipur",
    "type": "trauma_centre",
    "phone": "0141-2518888",
    "address": "Tonk Road, Jaipur",
    "city": "Jaipur",
    "state": "Rajasthan",
    "country": "India",
    "lat": 26.8883,
    "lon": 75.8102,
    "available_24x7": 1,
    "trauma_level": "Level 1"
  },
  {
    "name": "Jaipur Police Control",
    "type": "police",
    "phone": "0141-2744000",
    "address": "Jaipur",
    "city": "Jaipur",
    "state": "Rajasthan",
    "country": "India",
    "lat": 26.9124,
    "lon": 75.7873,
    "available_24x7": 1,
    "trauma_level": null
  },
  {
    "name": "Jaipur Ambulance 108",
    "type": "ambulance",
    "phone": "108",
    "address": "Jaipur",
    "city": "Jaipur",
    "state": "Rajasthan",
    "country": "India",
    "lat": 26.9124,
    "lon": 75.7873,
    "available_24x7": 1,
    "trauma_level": null
  },
  {
    "name": "New Civil Hospital Surat",
    "type": "trauma_centre",
    "phone": "0261-2244407",
    "address": "Majura Gate, Surat",
    "city": "Surat",
    "state": "Gujarat",
    "country": "India",
    "lat": 21.1937,
    "lon": 72.8308,
    "available_24x7": 1,
    "trauma_level": "Level 1"
  },
  {
    "name": "Surat Police Control",
    "type": "police",
    "phone": "0261-2460506",
    "address": "Surat",
    "city": "Surat",
    "state": "Gujarat",
    "country": "India",
    "lat": 21.1702,
    "lon": 72.8311,
    "available_24x7": 1,
    "trauma_level": null
  },
  {
    "name": "Surat Ambulance 108",
    "type": "ambulance",
    "phone": "108",
    "address": "Surat",
    "city": "Surat",
    "state": "Gujarat",
    "country": "India",
    "lat": 21.1702,
    "lon": 72.8311,
    "available_24x7": 1,
    "trauma_level": null
  },
  {
    "name": "KGMU Trauma Centre",
    "type": "trauma_centre",
    "phone": "0522-2258888",
    "address": "Shahmina Road, Lucknow",
    "city": "Lucknow",
    "state": "Uttar Pradesh",
    "country": "India",
    "lat": 26.8593,
    "lon": 80.9353,
    "available_24x7": 1,
    "trauma_level": "Level 1"
  },
  {
    "name": "Lucknow Police Control",
    "type": "police",
    "phone": "0522-2630100",
    "address": "Lucknow",
    "city": "Lucknow",
    "state": "Uttar Pradesh",
    "country": "India",
    "lat": 26.8467,
    "lon": 80.9462,
    "available_24x7": 1,
    "trauma_level": null
  },
  {
    "name": "Lucknow Ambulance 108",
    "type": "ambulance",
    "phone": "108",
    "address": "Lucknow",
    "city": "Lucknow",
    "state": "Uttar Pradesh",
    "country": "India",
    "lat": 26.8467,
    "lon": 80.9462,
    "available_24x7": 1,
    "trauma_level": null
  },
  {
    "name": "Emergency Services USA",
    "type": "emergency",
    "phone": "911",
    "address": "United States",
    "city": "All Cities",
    "state": "All States",
    "country": "USA",
    "lat": 37.0902,
    "lon": -95.7129,
    "available_24x7": 1,
    "trauma_level": null
  },
  {
    "name": "Poison Control USA",
    "type": "emergency",
    "phone": "1-800-222-1222",
    "address": "United States",
    "city": "All Cities",
    "state": "All States",
    "country": "USA",
    "lat": 37.0902,
    "lon": -95.7129,
    "available_24x7": 1,
    "trauma_level": null
  },
  {
    "name": "Emergency Services UK",
    "type": "emergency",
    "phone": "999",
    "address": "United Kingdom",
    "city": "All Cities",
    "state": "All States",
    "country": "UK",
    "lat": 55.3781,
    "lon": -3.436,
    "available_24x7": 1,
    "trauma_level": null
  },
  {
    "name": "NHS Non-Emergency UK",
    "type": "hospital",
    "phone": "111",
    "address": "United Kingdom",
    "city": "All Cities",
    "state": "All States",
    "country": "UK",
    "lat": 55.3781,
    "lon": -3.436,
    "available_24x7": 1,
    "trauma_level": null
  },
  {
    "name": "Emergency Services Australia",
    "type": "emergency",
    "phone": "000",
    "address": "Australia",
    "city": "All Cities",
    "state": "All States",
    "country": "Australia",
    "lat": -25.2744,
    "lon": 133.7751,
    "available_24x7": 1,
    "trauma_level": null
  },
  {
    "name": "Emergency Services UAE",
    "type": "emergency",
    "phone": "999",
    "address": "UAE",
    "city": "All Cities",
    "state": "All States",
    "country": "UAE",
    "lat": 23.4241,
    "lon": 53.8478,
    "available_24x7": 1,
    "trauma_level": null
  },
  {
    "name": "Ambulance UAE",
    "type": "ambulance",
    "phone": "998",
    "address": "UAE",
    "city": "All Cities",
    "state": "All States",
    "country": "UAE",
    "lat": 23.4241,
    "lon": 53.8478,
    "available_24x7": 1,
    "trauma_level": null
  },
  {
    "name": "Emergency Services Canada",
    "type": "emergency",
    "phone": "911",
    "address": "Canada",
    "city": "All Cities",
    "state": "All States",
    "country": "Canada",
    "lat": 56.1304,
    "lon": -106.3468,
    "available_24x7": 1,
    "trauma_level": null
  },
  {
    "name": "Emergency Services Germany",
    "type": "emergency",
    "phone": "112",
    "address": "Germany",
    "city": "All Cities",
    "state": "All States",
    "country": "Germany",
    "lat": 51.1657,
    "lon": 10.4515,
    "available_24x7": 1,
    "trauma_level": null
  },
  {
    "name": "Police Germany",
    "type": "police",
    "phone": "110",
    "address": "Germany",
    "city": "All Cities",
    "state": "All States",
    "country": "Germany",
    "lat": 51.1657,
    "lon": 10.4515,
    "available_24x7": 1,
    "trauma_level": null
  }
]
